<?xml version="1.0" encoding="UTF-8"?>
<kml xmlns="http://www.opengis.net/kml/2.2">
    <Document>
        <name>災害ベンダー</name>

        <!-- 長野運動公園中央広場-->
        <Placemark>
            <name>長野運動公園 中央広場</name>
            <Point>
                <coordinates>138.2322068,36.6601379,0</coordinates>
            </Point>
            <description><![CDATA[<b>長野運動公園 中央広場</b>]]></description>

            <ExtendedData>
                <Data name="category">
                    <value>Vendor</value>
                </Data>
            </ExtendedData>
        </Placemark>

        <!-- 南長野運動公園-->
        <Placemark>
            <name>南長野運動公園</name>
            <Point>
                <coordinates>138.1674699,36.5794432,0</coordinates>
            </Point>
            <description><![CDATA[<b>南長野運動公園</b>]]></description>

            <ExtendedData>
                <Data name="category">
                    <value>Vendor</value>
                </Data>
            </ExtendedData>
        </Placemark>

        <!-- 北部スポーツ・レクリエーションパーク -->
        <Placemark>
            <name>北部スポーツ・レクリエーションパーク</name>
            <description><![CDATA[<b>北部スポーツ・レクリエーションパーク</b>]]></description>

            <ExtendedData>
                <Data name="category">
                    <value>Vendor</value>
                </Data>
            </ExtendedData>
            <Point>
                <coordinates>138.241884,36.6893195,0</coordinates>
            </Point>
        </Placemark>

        <!-- 北陸信越運輸局 長野運輸支局 -->
        <Placemark>
            <name>北陸信越運輸局 長野運輸支局</name>
            <Point>
                <coordinates>138.220934,36.6491042,0</coordinates>
            </Point>
            <description><![CDATA[<b>北陸信越運輸局 長野運輸支局</b>]]></description>

            <ExtendedData>
                <Data name="category">
                    <value>Vendor</value>
                </Data>
            </ExtendedData>
        </Placemark>

        <!-- 長野国道事務所-->
        <Placemark>
            <name>長野国道事務所</name>
            <Point>
                <coordinates>138.1998043,36.6467334,0</coordinates>
                <description><![CDATA[<b>長野国道事務局</b>]]></description>

                <ExtendedData>
                    <Data name="category">
                        <value>Vendor</value>
                    </Data>
                </ExtendedData>
            </Point>
        </Placemark>

        <!-- 長野市豊野支所-->
        <Placemark>
            <name>長野市豊野支所</name>
            <Point>
                <coordinates>138.2824213,36.7118625,0</coordinates>
                <description><![CDATA[<b>長野市豊野支所</b>]]></description>

                <ExtendedData>
                    <Data name="category">
                        <value>Vendor</value>
                    </Data>
                </ExtendedData>
            </Point>
        </Placemark>

        <!-- 篠ノ井体育館-->
        <Placemark>
            <name>篠ノ井体育館</name>
            <Point>
                <coordinates>138.1309354,36.5860024,0</coordinates>
                <description><![CDATA[<b>篠ノ井体育館</b>]]></description>

                <ExtendedData>
                    <Data name="category">
                        <value>Vendor</value>
                    </Data>
                </ExtendedData>
            </Point>
        </Placemark>

        <!-- 長野赤十字病院-->
        <Placemark>
            <name>長野赤十字病院</name>
            <Point>
                <coordinates>138.190526,36.6273165,0</coordinates>
                <description><![CDATA[<b>長野赤十字病院</b>]]></description>

                <ExtendedData>
                    <Data name="category">
                        <value>Vendor</value>
                    </Data>
                </ExtendedData>
            </Point>
        </Placemark>

        <!-- 川中島公民館 -->
        <Placemark>
            <name>川中島公民館</name>
            <Point>
                <coordinates>138.15659,36.5992234,0</coordinates>
                <description><![CDATA[<b>川中島公民館</b>]]></description>

                <ExtendedData>
                    <Data name="category">
                        <value>Vendor</value>
                    </Data>
                </ExtendedData>
            </Point>
        </Placemark>

        <!-- 長野地方裁判所 -->
        <Placemark>
            <name>長野地方裁判所</name>
            <Point>
                <coordinates>138.1810423,36.654527,0</coordinates>
                <description><![CDATA[<b>長野地方裁判所</b>]]></description>

                <ExtendedData>
                    <Data name="category">
                        <value>Vendor</value>
                    </Data>
                </ExtendedData>
            </Point>
        </Placemark>

        <!-- 篠ノ井消防署 -->
        <Placemark>
            <name>篠ノ井消防署</name>
            <Point>
                <coordinates>138.1510669,36.5760283,0</coordinates>
                <description><![CDATA[<b>篠ノ井消防署</b>]]></description>

                <ExtendedData>
                    <Data name="category">
                        <value>Vendor</value>
                    </Data>
                </ExtendedData>
            </Point>
        </Placemark>

        <!-- 長野市新町消防署 -->
        <Placemark>
            <name>長野市新町消防署</name>
            <Point>
                <coordinates>138.0022363,36.5655517,0</coordinates>
                <description><![CDATA[<b>長野市新町消防署</b>]]></description>

                <ExtendedData>
                    <Data name="category">
                        <value>Vendor</value>
                    </Data>
                </ExtendedData>
            </Point>
        </Placemark>

        <!-- 犀川浄水場 -->
        <Placemark>
            <name>犀川浄水場</name>
            <Point>
                <coordinates>138.171262,36.627896,0</coordinates>
                <description><![CDATA[<b>犀川浄水場</b>]]></description>

                <ExtendedData>
                    <Data name="category">
                        <value>Vendor</value>
                    </Data>
                </ExtendedData>
            </Point>
        </Placemark>
    </Document>
</kml>
